{
  "success": true,
  "message": "",
  "code": 0,
  "data": [
    {
      "location": [
        116.365642,
        39.916457
      ],
      "name": "北京金融大街证券营业部",
      "city": "西城区",
      "address": "北京市西城区金融大街33号通泰大厦C605-607",
      "province": "北京市",
      "phone": [
        "010-88087855"
      ],
      "distince": "",
      "code": "089"
    },
    {
      "location": [
        116.422685,
        40.046924
      ],
      "name": "北京北苑路证券营业部",
      "city": "朝阳区",
      "address": "北京市朝阳区北苑路28号院1号楼01层（01）103内F1-203",
      "province": "北京市",
      "phone": [
        "010-84920966"
      ],
      "distince": "",
      "code": "308"
    },
    {
      "location": [
        116.414709,
        40.012325
      ],
      "name": "北京安立路证券营业部",
      "city": "西城区",
      "address": "北京市朝阳区安立路甲56号2层3-8",
      "province": "北京市",
      "phone": [
        "010-62073538"
      ],
      "distince": "",
      "code": "081"
    },
    {
      "location": [
        116.415401,
        39.974522
      ],
      "name": "北京安外大街证券营业部",
      "city": "东城区",
      "address": "北京市安定门外大街2号安贞大厦一层",
      "province": "北京市",
      "phone": [
        "010-62057993"
      ],
      "distince": "",
      "code": "052"
    },
    {
      "location": [
        116.45393,
        39.969368
      ],
      "name": "北京北三环东路证券营业部",
      "city": "朝阳区",
      "address": "北京市朝阳区西坝河东里18号中检大厦八层",
      "province": "北京市",
      "phone": [
        "010-84603492"
      ],
      "distince": "",
      "code": "077"
    },
    {
      "location": [
        116.4434,
        39.8906
      ],
      "name": "北京光明路证券营业部",
      "city": "东城区",
      "address": "北京市东城区光明路11号天玉大厦501、601室",
      "province": "北京市",
      "phone": [
        "010-67113778"
      ],
      "distince": "",
      "code": "060"
    },
    {
      "location": [
        116.467521,
        39.93562
      ],
      "name": "北京东三环北路证券营业部",
      "city": "朝阳区",
      "address": "北京市朝阳区东三环北路19号中青大厦2层201",
      "province": "北京市",
      "phone": [
        "010-65860272"
      ],
      "distince": "",
      "code": "307"
    },
    {
      "location": [
        116.445665,
        39.866927
      ],
      "name": "北京方庄路证券营业部",
      "city": "丰台区",
      "address": "北京市丰台区紫芳园四区2号楼1至2层202室",
      "province": "北京市",
      "phone": [
        "010-67681187"
      ],
      "distince": "",
      "code": "360"
    },
    {
      "location": [
        116.478854,
        39.940283
      ],
      "name": "北京朝阳公园路证券营业部",
      "city": "朝阳区",
      "address": "北京市朝阳区朝阳公园19号1幢一层101",
      "province": "北京市",
      "phone": [
        "010-85270558"
      ],
      "distince": "",
      "code": "616"
    },
    {
      "location": [
        116.495994,
        39.977851
      ],
      "name": "北京酒仙桥路证券营业部",
      "city": "朝阳区",
      "address": "北京市朝阳区酒仙桥路乙21号3幢5层5E",
      "province": "北京市",
      "phone": [
        "010-84316566"
      ],
      "distince": "",
      "code": "589"
    },
    {
      "location": [
        116.469755,
        39.913206
      ],
      "name": "北京建国路证券营业部",
      "city": "朝阳区",
      "address": "北京市朝阳区建国路118号招商局大厦8层",
      "province": "北京市",
      "phone": [
        "010-65684890"
      ],
      "distince": "",
      "code": "007"
    },
    {
      "location": [
        116.499032,
        39.921297
      ],
      "name": "北京朝阳路八里庄证券营业部",
      "city": "朝阳区",
      "address": "北京市朝阳区八里庄西里100号3层301",
      "province": "北京市",
      "phone": [
        "010-85790299"
      ],
      "distince": "",
      "code": "528"
    },
    {
      "location": [
        116.516566,
        39.797625
      ],
      "name": "北京亦庄证券营业部",
      "city": "朝阳区",
      "address": "北京市经济技术开发区荣华南路1号国锐广场B座101室",
      "province": "北京市",
      "phone": [
        "010-67870878"
      ],
      "distince": "",
      "code": "668"
    },
    {
      "location": [
        116.664654,
        40.117868
      ],
      "name": "北京顺义仓上街证券营业部",
      "city": "顺义区",
      "address": "北京市顺义区仓上街2号智能大厦B区八层",
      "province": "北京市",
      "phone": [
        "010-89444460"
      ],
      "distince": "",
      "code": "136"
    },
    {
      "location": [
        116.64743,
        39.910563
      ],
      "name": "北京通州新华西街证券营业部",
      "city": "通州区",
      "address": "北京市通州区万达广场西门金街C区新华南一街2-1底商",
      "province": "北京市",
      "phone": [
        "010-60562050"
      ],
      "distince": "",
      "code": "507"
    },
    {
      "location": [
        117.18186,
        39.147507
      ],
      "name": "天津鼓楼证券营业部",
      "city": "天津市",
      "address": "天津市南开区鼓楼西街515号",
      "province": "天津市",
      "phone": [
        "022-27357357"
      ],
      "distince": "",
      "code": "600"
    },
    {
      "location": [
        112.991038,
        28.17394
      ],
      "name": "长沙芙蓉中路证券营业部",
      "city": "长沙市",
      "address": "长沙市芙蓉中路三段142号光大发展大厦B座四楼",
      "province": "湖南省",
      "phone": [
        "0731-82256886"
      ],
      "distince": "",
      "code": "038"
    },
    {
      "location": [
        114.086031,
        32.121467
      ],
      "name": "信阳申城大道证券营业部",
      "city": "信阳市",
      "address": "信阳市浉河区申城大道成功花园31号交通银行7楼",
      "province": "河南省",
      "phone": [
        "0376-6798559"
      ],
      "distince": "",
      "code": "585"
    },
    {
      "location": [
        113.13796,
        27.831004
      ],
      "name": "株洲天台路证券营业部",
      "city": "株洲市",
      "address": "株洲市天元区天台路39号银天国际金融中心23楼",
      "province": "湖南省",
      "phone": [
        "0731-28868555",
        "0731-28868520"
      ],
      "distince": "",
      "code": "105"
    },
    {
      "location": [
        112.243221,
        22.719861
      ],
      "name": "云浮新兴沿江北路证券营业部",
      "city": "云浮市",
      "address": "广东省云浮市新兴县新城镇沿江北路66号筠城国际广场金融中心6层6D、6E、6F号",
      "province": "广东省",
      "phone": [
        "0766-2917816"
      ],
      "distince": "",
      "code": "303"
    },
    {
      "location": [
        115.502583,
        35.24049
      ],
      "name": "菏泽人民路证券营业部",
      "city": "菏泽市",
      "address": "菏泽市丹阳办事处何楼社区龙燕阳光城3#、6#9室10室",
      "province": "山东省",
      "phone": [
        "0530-6295565"
      ],
      "distince": "",
      "code": "367"
    },
    {
      "location": [
        115.973608,
        36.463365
      ],
      "name": "聊城东昌路证券营业部",
      "city": "聊城市",
      "address": "山东省聊城市东昌西路北向阳路以东绮苑小区二期交运公寓楼1幢1至2层",
      "province": "山东省",
      "phone": [
        "0635-8095565"
      ],
      "distince": "",
      "code": "317"
    },
    {
      "location": [
        117.180272,
        39.087861
      ],
      "name": "天津水上东路证券营业部",
      "city": "天津市",
      "address": "天津市南开区水上公园东路东侧宁汇大厦2号写字楼2层办公03单元",
      "province": "天津市",
      "phone": [
        "022-81370558"
      ],
      "distince": "",
      "code": "558"
    },
    {
      "location": [
        114.269137,
        30.596946
      ],
      "name": "武汉青年路证券营业部",
      "city": "武汉市",
      "address": "湖北省武汉市江汉区青年路59号环球贸易中心（一期）B塔二层会议室1号、2号",
      "province": "湖北省",
      "phone": [
        "027-83646275"
      ],
      "distince": "",
      "code": "087"
    },
    {
      "location": [
        117.211117,
        39.110249
      ],
      "name": "天津友谊北路证券营业部",
      "city": "天津市",
      "address": "天津市河西区友谊北路51号合众大厦B座4层",
      "province": "天津市",
      "phone": [
        "022-83288615"
      ],
      "distince": "",
      "code": "073"
    },
    {
      "location": [
        114.365519,
        30.579804
      ],
      "name": "武汉中北路证券营业部",
      "city": "武汉市",
      "address": "武汉市武昌区中北路236号帅府商通大厦2-3层",
      "province": "湖北省",
      "phone": [
        "027-86793521",
        "027-86771085"
      ],
      "distince": "",
      "code": "028"
    },
    {
      "location": [
        114.419573,
        30.507514
      ],
      "name": "武汉关山大道证券营业部",
      "city": "武汉市",
      "address": "湖北省武汉市关山大道111号时代广场B座5楼",
      "province": "湖北省",
      "phone": [
        "027-87153306"
      ],
      "distince": "",
      "code": "387"
    },
    {
      "location": [
        117.649084,
        39.030784
      ],
      "name": "天津滨海新区证券营业部",
      "city": "天津市",
      "address": "天津市滨海新区碧海鸿庭底商F区35号",
      "province": "天津市",
      "phone": [
        "022-65168007"
      ],
      "distince": "",
      "code": "326"
    },
    {
      "location": [
        113.124472,
        23.1146
      ],
      "name": "佛山大沥证券营业部",
      "city": "佛山市",
      "address": "佛山市南海区大沥镇竹基南路1号华亚国际金融大厦304、305单元",
      "province": "广东省",
      "phone": [
        "0757-85561988"
      ],
      "distince": "",
      "code": "636"
    },
    {
      "location": [
        117.715261,
        39.035449
      ],
      "name": "天津开发区第三大街证券营业部",
      "city": "天津市",
      "address": "天津市开发区第三大街51号W5-C2-3层",
      "province": "天津市",
      "phone": [
        "022-66371212"
      ],
      "distince": "",
      "code": "118"
    },
    {
      "location": [
        113.127022,
        23.018405
      ],
      "name": "佛山季华五路证券营业部",
      "city": "佛山市",
      "address": "佛山市季华五路57号万科金融中心三期首层5号，8层812,813室",
      "province": "广东省",
      "phone": [
        "0757-83203088"
      ],
      "distince": "",
      "code": "036"
    },
    {
      "location": [
        113.091387,
        22.58909
      ],
      "name": "江门白沙大道东证券营业部",
      "city": "江门市",
      "address": "江门市蓬江区白沙大道东9号首层D228、D229、D230、D231、D232、D233、D234、D235号铺位",
      "province": "广东省",
      "phone": [
        "0750-3479988"
      ],
      "distince": "",
      "code": "319"
    },
    {
      "location": [
        113.216565,
        23.15977
      ],
      "name": "广州金沙洲证券营业部",
      "city": "广州市",
      "address": "广州市白云区环洲二路63号自编207房",
      "province": "广东省",
      "phone": [
        "020-81630226"
      ],
      "distince": "",
      "code": "565"
    },
    {
      "location": [
        113.326532,
        23.146731
      ],
      "name": "广州天河北路证券营业部",
      "city": "广州市",
      "address": "广东省广州市天河北路108号光华大厦三楼",
      "province": "广东省",
      "phone": [
        "020-38816595",
        "020-38862280"
      ],
      "distince": "",
      "code": "003"
    },
    {
      "location": [
        113.324575,
        23.121595
      ],
      "name": "广州华穗路证券营业部",
      "city": "广州市",
      "address": "广州市天河区珠江新城华穗路5号招商银行大厦12楼",
      "province": "广东省",
      "phone": [
        "020-38869599"
      ],
      "distince": "",
      "code": "103"
    },
    {
      "location": [
        113.275359,
        22.840343
      ],
      "name": "佛山顺德东乐路证券营业部",
      "city": "佛山市",
      "address": "广东省佛山市顺德区大良镇东乐路266号万邦商业广场一座6楼",
      "province": "广东省",
      "phone": [
        "0757-22111111"
      ],
      "distince": "",
      "code": "070"
    },
    {
      "location": [
        113.348519,
        23.108898
      ],
      "name": "广州琶洲证券营业部",
      "city": "广州市",
      "address": "广州市海珠区琶洲大道79号宝地广场西侧裙楼第一层105房",
      "province": "广东省",
      "phone": [
        "020-89117356"
      ],
      "distince": "",
      "code": "628"
    },
    {
      "location": [
        117.038585,
        36.672129
      ],
      "name": "济南泉城路证券营业部",
      "city": "济南市",
      "address": "济南市历下区泉城路15号皇亭体育馆新综合楼3楼",
      "province": "山东省",
      "phone": [
        "0531-81910766",
        "0531-81910788"
      ],
      "distince": "",
      "code": "056"
    },
    {
      "location": [
        113.355698,
        23.013832
      ],
      "name": "广州番禺万达广场证券营业部",
      "city": "广州市",
      "address": "广州市番禺区南村镇汇智三路133号",
      "province": "广东省",
      "phone": [
        "020-84784521"
      ],
      "distince": "",
      "code": "686"
    },
    {
      "location": [
        116.613096,
        35.430487
      ],
      "name": "济宁吴泰闸路证券营业部",
      "city": "济宁市",
      "address": "济宁市任城区吴泰闸路88号新世纪花园小区12号楼东数第六间一、二层营业房",
      "province": "山东省",
      "phone": [
        "0537-2895565"
      ],
      "distince": "",
      "code": "398"
    },
    {
      "location": [
        113.366035,
        22.930439
      ],
      "name": "广州番禺南华路证券营业部",
      "city": "广州市",
      "address": "广州市番禺区桥南街南华路271号101房301号、273号301号、285号301号",
      "province": "广东省",
      "phone": [
        "020-37105588"
      ],
      "distince": "",
      "code": "323"
    },
    {
      "location": [
        113.392922,
        23.063019
      ],
      "name": "广州大学城证券营业部",
      "city": "广州市",
      "address": "广州市番禺区小谷围街道青蓝街26号201、104",
      "province": "广东省",
      "phone": [
        "020-85821380"
      ],
      "distince": "",
      "code": "503"
    },
    {
      "location": [
        115.807974,
        32.91405
      ],
      "name": "阜阳人民路证券营业部",
      "city": "阜阳市",
      "address": "安徽省阜阳市人民路106号气象大厦10层",
      "province": "安徽省",
      "phone": [
        "0558-2589518"
      ],
      "distince": "",
      "code": "366"
    },
    {
      "location": [
        113.408792,
        22.517037
      ],
      "name": "中山中山四路证券营业部",
      "city": "中山市",
      "address": "广东省中山石岐中山四路88号盛景尚峰金融中心B2座5层",
      "province": "广东省",
      "phone": [
        "0760-89980988"
      ],
      "distince": "",
      "code": "113"
    },
    {
      "location": [
        113.469034,
        22.286221
      ],
      "name": "中山坦洲证券营业部",
      "city": "中山市",
      "address": "中山市坦洲镇坦神北路115号锦绣广场88-89卡",
      "province": "广东省",
      "phone": [
        "0760-87856628"
      ],
      "distince": "",
      "code": "530"
    },
    {
      "location": [
        113.671623,
        22.935247
      ],
      "name": "东莞厚街珊瑚路证券营业部",
      "city": "东莞市",
      "address": "东莞市厚街镇珊瑚路153号一楼",
      "province": "广东省",
      "phone": [
        "0769-81638272"
      ],
      "distince": "",
      "code": "338"
    },
    {
      "location": [
        113.555058,
        22.277539
      ],
      "name": "珠海人民西路证券营业部",
      "city": "珠海市",
      "address": "珠海市人民西路68号友华投资大厦6-7层",
      "province": "广东省",
      "phone": [
        "0756-2622918"
      ],
      "distince": "",
      "code": "029"
    },
    {
      "location": [
        113.562591,
        22.231245
      ],
      "name": "珠海粤海东路营业部",
      "city": "珠海市",
      "address": "珠海市拱北粤海东路1145号粤海酒店东楼6楼招商证券",
      "province": "广东省",
      "phone": [
        "0756-8871515"
      ],
      "distince": "",
      "code": "329"
    },
    {
      "location": [
        113.689426,
        22.841597
      ],
      "name": "东莞虎门连升路证券营业部",
      "city": "东莞市",
      "address": "东莞市虎门镇连升路288号新虎威大厦8楼801室",
      "province": "广东省",
      "phone": [
        "0769-86035008"
      ],
      "distince": "",
      "code": "389"
    },
    {
      "location": [
        113.761516,
        23.013449
      ],
      "name": "东莞鸿福路证券营业部",
      "city": "东莞市",
      "address": "东莞市南城区鸿福路200号第一国际招商银行大厦20楼",
      "province": "广东省",
      "phone": [
        "0769-22382017",
        "0769-22382016"
      ],
      "distince": "",
      "code": "025"
    },
    {
      "location": [
        113.826208,
        23.28368
      ],
      "name": "广州增城荔乡路证券营业部",
      "city": "广州市",
      "address": "广州市增城区荔城街荔乡路83号201号之一、之六",
      "province": "广东省",
      "phone": [
        "020-26238608"
      ],
      "distince": "",
      "code": "313"
    },
    {
      "location": [
        113.868143,
        23.102048
      ],
      "name": "东莞石龙西湖一路证券营业部",
      "city": "东莞市",
      "address": "东莞市石龙镇西湖一路南一号二层",
      "province": "广东省",
      "phone": [
        "0769-81732233"
      ],
      "distince": "",
      "code": "328"
    },
    {
      "location": [
        113.836526,
        22.73626
      ],
      "name": "深圳中心路证券营业部",
      "city": "深圳市",
      "address": "深圳市宝安区新桥街道上星社区中心路108号锐钧大厦14A",
      "province": "广东省",
      "phone": [
        "0755-23036118"
      ],
      "distince": "",
      "code": "316"
    },
    {
      "location": [
        117.170088,
        35.096359
      ],
      "name": "滕州解放中路证券营业部",
      "city": "枣庄市",
      "address": "山东省枣庄市滕州市解放中路64号爱家大厦C8号",
      "province": "山东省",
      "phone": [
        "0632-2889999"
      ],
      "distince": "",
      "code": "597"
    },
    {
      "location": [
        113.869918,
        22.57426
      ],
      "name": "深圳宝源路证券营业部",
      "city": "深圳市",
      "address": "深圳市宝安区西乡街道宝源路1069号前岸国际酒店905-906",
      "province": "广东省",
      "phone": [
        "0755-23202791"
      ],
      "distince": "",
      "code": "569"
    },
    {
      "location": [
        113.886912,
        22.555622
      ],
      "name": "深圳宝兴路证券营业部",
      "city": "深圳市",
      "address": "深圳市宝安区新安街道宝兴路西侧万骏经贸大厦701-713室",
      "province": "广东省",
      "phone": [
        "0755-29374081",
        "0755-23152865"
      ],
      "distince": "",
      "code": "078"
    },
    {
      "location": [
        113.909792,
        22.57097
      ],
      "name": "深圳建安路证券营业部",
      "city": "深圳市",
      "address": "深圳市宝安区建安一路272号东方恒业综合楼2-4层",
      "province": "广东省",
      "phone": [
        "0755-27880610"
      ],
      "distince": "",
      "code": "016"
    },
    {
      "location": [
        113.919827,
        22.546831
      ],
      "name": "深圳前海路证券营业部",
      "city": "深圳市",
      "address": "深圳市南山区前海路星海名城振业国际商务中心19楼",
      "province": "广东省",
      "phone": [
        "0755-26662917"
      ],
      "distince": "",
      "code": "012"
    },
    {
      "location": [
        113.922722,
        22.492199
      ],
      "name": "深圳蛇口工业三路证券营业部",
      "city": "深圳市",
      "address": "深圳市南山蛇口工业三路南海意库梦工场大厦(现名为招商局港口大厦)11楼",
      "province": "广东省",
      "phone": [
        "0755-26681468"
      ],
      "distince": "",
      "code": "092"
    },
    {
      "location": [
        113.933754,
        22.522215
      ],
      "name": "深圳南山南油大道证券营业部",
      "city": "深圳市",
      "address": "深圳市南山南海大道新能源大厦A座五楼",
      "province": "广东省",
      "phone": [
        "0755-26642450"
      ],
      "distince": "",
      "code": "001"
    },
    {
      "location": [
        113.940531,
        22.52329
      ],
      "name": "深圳海德一道证券营业部",
      "city": "深圳市",
      "address": "深圳市南山区粤海街道海德一道88号中洲控股中心B座8楼M",
      "province": "广东省",
      "phone": [
        "0755-26641653"
      ],
      "distince": "",
      "code": "599"
    },
    {
      "location": [
        113.945068,
        22.530022
      ],
      "name": "深圳海天一路证券营业部",
      "city": "深圳市",
      "address": "深圳市南山区粤海街道海天一路软件产业基地2栋136",
      "province": "广东省",
      "phone": [
        "0755-26652685"
      ],
      "distince": "",
      "code": "591"
    },
    {
      "location": [
        113.957101,
        22.562132
      ],
      "name": "深圳朗山路证券营业部",
      "city": "深圳市",
      "address": "深圳市南山区第五工业区朗山路东物商业大楼0301西侧之一",
      "province": "广东省",
      "phone": [
        "0755-86562260"
      ],
      "distince": "",
      "code": "312"
    },
    {
      "location": [
        113.949181,
        22.515258
      ],
      "name": "深圳后海证券营业部",
      "city": "深圳市",
      "address": "深圳市南山区粤海街道科苑南3331阿里巴巴大厦N2座701",
      "province": "广东省",
      "phone": [
        "0755-26927714",
        "0755-26006946"
      ],
      "distince": "",
      "code": "559"
    },
    {
      "location": [
        113.962602,
        22.585843
      ],
      "name": "深圳西丽留仙大道证券营业部",
      "city": "深圳市",
      "address": "深圳市南山区留仙大道众冠大厦202（二楼东北面）",
      "province": "广东省",
      "phone": [
        "0755-26998330"
      ],
      "distince": "",
      "code": "577"
    },
    {
      "location": [
        113.959702,
        22.545144
      ],
      "name": "深圳科技园高新南一道证券营业部",
      "city": "深圳市",
      "address": "深圳市南山区科技园高新南一道TCL大厦A座A305室、A501室",
      "province": "广东省",
      "phone": [
        "0755-26006986",
        "0755-86185522",
        "0755-26006983",
        "0755-26006984",
        "0755-26006900"
      ],
      "distince": "",
      "code": "064"
    },
    {
      "location": [
        113.958711,
        22.535926
      ],
      "name": "深圳湾科技生态园证券营业部",
      "city": "深圳市",
      "address": "深圳市南山区粤海街道高新南九道10号深圳湾科技生态园10栋裙楼01层54号",
      "province": "广东省",
      "phone": [
        "0755-86540805"
      ],
      "distince": "",
      "code": "696"
    },
    {
      "location": [
        114.032291,
        22.641406
      ],
      "name": "深圳布龙路证券营业部",
      "city": "深圳市",
      "address": "深圳市龙华区民治街道布龙路与人民路交汇处恒江大厦701#-703#",
      "province": "广东省",
      "phone": [
        "0755-23737033"
      ],
      "distince": "",
      "code": "302"
    },
    {
      "location": [
        114.028925,
        22.540818
      ],
      "name": "深圳车公庙证券营业部",
      "city": "深圳市",
      "address": "深圳市福田区深南大道车公庙英龙展业大厦三楼",
      "province": "广东省",
      "phone": [
        "0755-88309663"
      ],
      "distince": "",
      "code": "097"
    },
    {
      "location": [
        114.066234,
        22.608786
      ],
      "name": "深圳五和大道证券营业部",
      "city": "深圳市",
      "address": "深圳市龙岗区坂田街道五和大道星河WORLD1期B栋B2006",
      "province": "广东省",
      "phone": [
        "0755-28715589"
      ],
      "distince": "",
      "code": "525"
    },
    {
      "location": [
        118.054382,
        36.812699
      ],
      "name": "淄博共青团路证券营业部",
      "city": "淄博市",
      "address": "山东省淄博市张店区共青团路95号钻石商务大厦一层三号、十四楼I、S户",
      "province": "山东省",
      "phone": [
        "0533-2895565"
      ],
      "distince": "",
      "code": "396"
    },
    {
      "location": [
        114.058743,
        22.5283
      ],
      "name": "深圳福民路证券营业部",
      "city": "深圳市",
      "address": "深圳市福田区福保街道福民路129号众孚大厦2楼",
      "province": "广东省",
      "phone": [
        "0755-83866046"
      ],
      "distince": "",
      "code": "008"
    },
    {
      "location": [
        114.067942,
        22.57673
      ],
      "name": "深圳梅康路证券营业部",
      "city": "深圳市",
      "address": "深圳市福田区梅林街道梅康路8号理想时代大厦11G",
      "province": "广东省",
      "phone": [
        "0755-82550068"
      ],
      "distince": "",
      "code": "590"
    },
    {
      "location": [
        114.062169,
        22.542588
      ],
      "name": "深圳益田路免税商务大厦证券营业部",
      "city": "深圳市",
      "address": "深圳市福田区福田街道福安社区福华一路6号免税商务大厦901楼-1单元/2001楼-1单元",
      "province": "广东省",
      "phone": [
        "0755-82766301"
      ],
      "distince": "",
      "code": "002"
    },
    {
      "location": [
        114.070224,
        22.54972
      ],
      "name": "深圳金田路证券营业部",
      "city": "深圳市",
      "address": "深圳市福田区莲花街道金田路4028号荣超经贸中心1406室",
      "province": "广东省",
      "phone": [
        "0755-33986070"
      ],
      "distince": "",
      "code": "519"
    },
    {
      "location": [
        114.070517,
        22.539099
      ],
      "name": "深圳福华三路证券营业部",
      "city": "深圳市",
      "address": "深圳市福田区中心区东南部时代财富大厦16A—F1",
      "province": "广东省",
      "phone": [
        "0755-86682802"
      ],
      "distince": "",
      "code": "048"
    },
    {
      "location": [
        114.08696,
        22.545195
      ],
      "name": "深圳深南中路证券营业部",
      "city": "深圳市",
      "address": "深圳市福田区福田街道福南社区深南中路3031号汉国城市商业中心1801、1802、1803、1808",
      "province": "广东省",
      "phone": [
        "0755-83780372"
      ],
      "distince": "",
      "code": "095"
    },
    {
      "location": [
        114.114986,
        22.546988
      ],
      "name": "深圳深南东路证券营业部",
      "city": "深圳市",
      "address": "深圳市深南东路5045号深业中心大厦24F",
      "province": "广东省",
      "phone": [
        "0755-25919136",
        "0755-25919130"
      ],
      "distince": "",
      "code": "093"
    },
    {
      "location": [
        114.131183,
        22.580894
      ],
      "name": "深圳水贝证券营业部",
      "city": "深圳市",
      "address": "广东省深圳市罗湖区布心路3008号水贝珠宝总部大厦A座1001/1008",
      "province": "广东省",
      "phone": [
        "0755-28878888"
      ],
      "distince": "",
      "code": "090"
    },
    {
      "location": [
        122.14069,
        37.491048
      ],
      "name": "威海青岛北路证券营业部",
      "city": "威海市",
      "address": "威海市青岛北路19号",
      "province": "山东省",
      "phone": [
        "95565"
      ],
      "distince": "",
      "code": "355"
    },
    {
      "location": [
        114.128566,
        22.563281
      ],
      "name": "深圳笋岗路证券营业部",
      "city": "深圳市",
      "address": "深圳市罗湖区笋岗东路1002号宝安广场B座二楼",
      "province": "广东省",
      "phone": [
        "0755-25170440"
      ],
      "distince": "",
      "code": "011"
    },
    {
      "location": [
        114.130712,
        22.545432
      ],
      "name": "深圳东门南路证券营业部",
      "city": "深圳市",
      "address": "深圳市罗湖区南湖街道嘉南社区东门南路2007号广发大厦第四层B",
      "province": "广东省",
      "phone": [
        "0755-82256452"
      ],
      "distince": "",
      "code": "010"
    },
    {
      "location": [
        123.961185,
        47.352029
      ],
      "name": "齐齐哈尔公园路证券营业部",
      "city": "齐齐哈尔市",
      "address": "齐齐哈尔市龙沙区龙门小区3号楼营业1-7层",
      "province": "黑龙江省",
      "phone": [
        "0452-8888947"
      ],
      "distince": "",
      "code": "300"
    },
    {
      "location": [
        114.275431,
        22.729161
      ],
      "name": "深圳龙岗龙岗大道证券营业部",
      "city": "深圳市",
      "address": "深圳市龙岗区龙岗大道6002号摩尔城9-10层",
      "province": "广东省",
      "phone": [
        "0755-28832904"
      ],
      "distince": "",
      "code": "015"
    },
    {
      "location": [
        114.243829,
        22.560915
      ],
      "name": "深圳壹海城证券营业部",
      "city": "深圳市",
      "address": "深圳市盐田区沙头角深盐路东侧壹海城（一区）24楼",
      "province": "广东省",
      "phone": [
        "0755-25551515",
        "0755-25551357"
      ],
      "distince": "",
      "code": "005"
    },
    {
      "location": [
        116.512212,
        31.74804
      ],
      "name": "六安梅山路证券营业部",
      "city": "六安市",
      "address": "六安市裕安区梅山路振兴金融大厦402、403室",
      "province": "安徽省",
      "phone": [
        "0564-3336678"
      ],
      "distince": "",
      "code": "320"
    },
    {
      "location": [
        114.958546,
        25.856224
      ],
      "name": "赣州红旗大道证券营业部",
      "city": "赣州市",
      "address": "江西省赣州市章贡区红旗大道24号四楼",
      "province": "江西省",
      "phone": [
        "0797-8685720",
        "0797-8685715"
      ],
      "distince": "",
      "code": "309"
    },
    {
      "location": [
        114.423997,
        23.119785
      ],
      "name": "惠州文明一路证券营业部",
      "city": "惠州市",
      "address": "广东省惠州市江北文明一路三号中信城市时代2单元16层07号及1层04、05号",
      "province": "广东省",
      "phone": [
        "0752-5789921"
      ],
      "distince": "",
      "code": "353"
    },
    {
      "location": [
        115.987611,
        29.705458
      ],
      "name": "九江九龙街证券营业部",
      "city": "九江市",
      "address": "江西省九江市九江经济技术开发区九龙街南段步红花园C区1号楼",
      "province": "江西省",
      "phone": [
        "0792-2295565"
      ],
      "distince": "",
      "code": "509"
    },
    {
      "location": [
        115.917596,
        28.680531
      ],
      "name": "南昌北京西路证券营业部",
      "city": "南昌市",
      "address": "南昌市东湖区北京西路119号",
      "province": "江西省",
      "phone": [
        "0791-86288000"
      ],
      "distince": "",
      "code": "180"
    },
    {
      "location": [
        115.970138,
        28.696919
      ],
      "name": "南昌火炬大街证券营业部",
      "city": "南昌市",
      "address": "江西省南昌市南昌高新技术产业开发区火炬大街579号绿悦科技大厦一楼西侧",
      "province": "江西省",
      "phone": [
        "0791-88133168"
      ],
      "distince": "",
      "code": "310"
    },
    {
      "location": [
        117.383435,
        32.93786
      ],
      "name": "蚌埠涂山东路证券营业部",
      "city": "蚌埠市",
      "address": "安徽省蚌埠市涂山东路1717号金融中心大楼A座15楼",
      "province": "安徽省",
      "phone": [
        "0552-3700999"
      ],
      "distince": "",
      "code": "399"
    },
    {
      "location": [
        117.140945,
        31.836988
      ],
      "name": "合肥望江西路营业部",
      "city": "合肥市",
      "address": "合肥市高新区望江西路860号创新中心B座1009室",
      "province": "安徽省",
      "phone": [
        "0551-68568616"
      ],
      "distince": "",
      "code": "369"
    },
    {
      "location": [
        118.351397,
        35.108668
      ],
      "name": "临沂北京路证券营业部",
      "city": "临沂市",
      "address": "山东省临沂市兰山区北京路41号",
      "province": "山东省",
      "phone": [
        "0539-8126888"
      ],
      "distince": "",
      "code": "397"
    },
    {
      "location": [
        117.289239,
        31.885696
      ],
      "name": "合肥北一环证券营业部",
      "city": "合肥市",
      "address": "安徽省合肥市庐阳区北一环濉溪路118号置地汇丰广场5楼",
      "province": "安徽省",
      "phone": [
        "0551-62214190"
      ],
      "distince": "",
      "code": "035"
    },
    {
      "location": [
        119.16072,
        36.732176
      ],
      "name": "潍坊北海路证券营业部",
      "city": "潍坊市",
      "address": "山东省潍坊市奎文区北海路2355号1号楼106号",
      "province": "山东省",
      "phone": [
        "0536-7377111"
      ],
      "distince": "",
      "code": "167"
    },
    {
      "location": [
        117.108215,
        30.525635
      ],
      "name": "安庆皖江大道证券营业部",
      "city": "安庆市",
      "address": "安徽省安庆市迎江区迎江世纪城紫峰大厦A座13层",
      "province": "安徽省",
      "phone": [
        "0556-5555200"
      ],
      "distince": "",
      "code": "522"
    },
    {
      "location": [
        117.493579,
        30.6551
      ],
      "name": "池州长江南路证券营业部",
      "city": "池州市",
      "address": "安徽省池州市贵池区财富广场801-803",
      "province": "安徽省",
      "phone": [
        "0566-5227001"
      ],
      "distince": "",
      "code": "372"
    },
    {
      "location": [
        119.951505,
        37.182477
      ],
      "name": "烟台莱州市府前街证券营业部",
      "city": "烟台市",
      "address": "山东烟台莱州市府前街银资商务楼1幢",
      "province": "山东省",
      "phone": [
        "0535-2099606"
      ],
      "distince": "",
      "code": "107"
    },
    {
      "location": [
        119.981521,
        36.793916
      ],
      "name": "青岛平度市红旗路证券营业部",
      "city": "青岛市",
      "address": "山东省青岛市平度市东阁街道办事处红旗路27号",
      "province": "山东省",
      "phone": [
        "0532-86635778"
      ],
      "distince": "",
      "code": "392"
    },
    {
      "location": [
        117.830403,
        30.940796
      ],
      "name": "铜陵石城大道证券营业部",
      "city": "铜陵市",
      "address": "铜陵市石城大道110号银晖大厦6楼",
      "province": "安徽省",
      "phone": [
        "0562-2889100"
      ],
      "distince": "",
      "code": "189"
    },
    {
      "location": [
        120.494973,
        37.645598
      ],
      "name": "龙口港城大道证券营业部",
      "city": "烟台市",
      "address": "山东省烟台市龙口市东江街道港城大道嘉元锦里七号B区S3号商业楼201.202.203室",
      "province": "山东省",
      "phone": [
        "0535-3126626"
      ],
      "distince": "",
      "code": "535"
    },
    {
      "location": [
        120.041035,
        36.262161
      ],
      "name": "青岛胶州市澳门路证券营业部",
      "city": "青岛市",
      "address": "青岛胶州市澳门路333号海湾天泰金融广场小区1号楼商业102、103、104",
      "province": "山东省",
      "phone": [
        "0532-86628017"
      ],
      "distince": "",
      "code": "375"
    },
    {
      "location": [
        118.517445,
        31.678392
      ],
      "name": "马鞍山雨山东路证券营业部",
      "city": "马鞍山市",
      "address": "安徽省马鞍山市花山区雨山东路1477号1-208、1-209",
      "province": "安徽省",
      "phone": [
        "0555-3107889"
      ],
      "distince": "",
      "code": "116"
    },
    {
      "location": [
        118.386827,
        31.339403
      ],
      "name": "芜湖文化路证券营业部",
      "city": "芜湖市",
      "address": "安徽省芜湖市镜湖区文化路伟星时代金融中心7楼702.703",
      "province": "安徽省",
      "phone": [
        "0553-5650577"
      ],
      "distince": "",
      "code": "377"
    },
    {
      "location": [
        120.523995,
        36.883835
      ],
      "name": "青岛莱西市上海路证券营业部",
      "city": "青岛市",
      "address": "山东省青岛市莱西市水集街道办事处长岛路139-8号",
      "province": "山东省",
      "phone": [
        "0532-66035266",
        "0532-66036599"
      ],
      "distince": "",
      "code": "526"
    },
    {
      "location": [
        120.188515,
        35.958067
      ],
      "name": "青岛西海岸新区证券营业部",
      "city": "青岛市",
      "address": "山东省青岛市黄岛区长江中路519号1层、11层（01、02、03、04南、08房间）",
      "province": "山东省",
      "phone": [
        "0532-80989011",
        "0532-80989001"
      ],
      "distince": "",
      "code": "186"
    },
    {
      "location": [
        118.734378,
        32.000363
      ],
      "name": "南京庐山路证券营业部",
      "city": "南京市",
      "address": "南京市建邺区庐山路199号南京招银大厦7楼",
      "province": "江苏省",
      "phone": [
        "025-52868388"
      ],
      "distince": "",
      "code": "018"
    },
    {
      "location": [
        120.434994,
        36.396367
      ],
      "name": "青岛即墨市蓝鳌路证券营业部",
      "city": "青岛市",
      "address": "青岛即墨市蓝鳌路1377号甲",
      "province": "山东省",
      "phone": [
        "0532-89067786"
      ],
      "distince": "",
      "code": "190"
    },
    {
      "location": [
        121.623893,
        38.92283
      ],
      "name": "大连新开路证券营业部",
      "city": "大连市",
      "address": "辽宁省大连市西岗区新开路68号中投大厦18层",
      "province": "辽宁省",
      "phone": [
        "0411-66665565"
      ],
      "distince": "",
      "code": "185"
    },
    {
      "location": [
        120.38997,
        36.069044
      ],
      "name": "青岛五四广场证券营业部",
      "city": "青岛市",
      "address": "山东省青岛市市南区东海西路33号2号楼102户",
      "province": "山东省",
      "phone": [
        "0532-58717516"
      ],
      "distince": "",
      "code": "379"
    },
    {
      "location": [
        120.460768,
        36.113177
      ],
      "name": "青岛海尔路证券营业部",
      "city": "青岛市",
      "address": "山东省青岛市崂山区海尔路178-2号裕龙国际中心B座",
      "province": "山东省",
      "phone": [
        "0532-80997703"
      ],
      "distince": "",
      "code": "362"
    },
    {
      "location": [
        120.474536,
        36.109194
      ],
      "name": "青岛金家岭金融区证券营业部",
      "city": "青岛市",
      "address": "青岛市崂山区仙霞岭路17-21号100复式一层",
      "province": "山东省",
      "phone": [
        "0532-66889566",
        "0532-66889501",
        "0532-66889518",
        "0532-66889588"
      ],
      "distince": "",
      "code": "013"
    },
    {
      "location": [
        123.398509,
        41.805883
      ],
      "name": "沈阳兴工街证券营业部",
      "city": "沈阳市",
      "address": "沈阳市铁西区兴工北街53号瀚都国际一楼",
      "province": "辽宁省",
      "phone": [
        "024-31895565"
      ],
      "distince": "",
      "code": "024"
    },
    {
      "location": [
        123.01373,
        41.122371
      ],
      "name": "鞍山新华街证券营业部",
      "city": "鞍山市",
      "address": "辽宁省鞍山市铁东区新华街20栋（所在层为1-3层）",
      "province": "辽宁省",
      "phone": [
        "0412-5595565"
      ],
      "distince": "",
      "code": "101"
    },
    {
      "location": [
        121.269958,
        37.568432
      ],
      "name": "烟台长江路证券营业部",
      "city": "烟台市",
      "address": "山东省烟台市开发区长江路28号华新国际大厦19层",
      "province": "山东省",
      "phone": [
        "0535-6109999",
        "0535-6109988",
        "0535-6109999"
      ],
      "distince": "",
      "code": "123"
    },
    {
      "location": [
        123.468319,
        41.738539
      ],
      "name": "沈阳浑南证券营业部",
      "city": "沈阳市",
      "address": "辽宁省沈阳市浑南区天坛南街12-18号4门",
      "province": "辽宁省",
      "phone": [
        "024-86860566"
      ],
      "distince": "",
      "code": "557"
    },
    {
      "location": [
        117.976366,
        28.451784
      ],
      "name": "上饶赣东北大道证券营业部",
      "city": "上饶市",
      "address": "江西省上饶市信州区赣东北大道32号4-1-01,4-1-03,4-1-05",
      "province": "江西省",
      "phone": [
        "0793-6180888"
      ],
      "distince": "",
      "code": "510"
    },
    {
      "location": [
        119.440137,
        32.404939
      ],
      "name": "扬州汶河北路证券营业部",
      "city": "扬州市",
      "address": "扬州市汶河北路42号蓝天大厦三楼",
      "province": "江苏省",
      "phone": [
        "0514-87365072"
      ],
      "distince": "",
      "code": "020"
    },
    {
      "location": [
        123.951207,
        41.885027
      ],
      "name": "抚顺临江东路证券营业部",
      "city": "抚顺市",
      "address": "辽宁省抚顺市顺城区临江东路8号楼12号门市",
      "province": "辽宁省",
      "phone": [
        "024-57695565"
      ],
      "distince": "",
      "code": "567"
    },
    {
      "location": [
        126.609974,
        45.771487
      ],
      "name": "哈尔滨爱建路证券营业部",
      "city": "哈尔滨市",
      "address": "哈尔滨市道里区爱建路9号-12号",
      "province": "黑龙江省",
      "phone": [
        "0451-59106767"
      ],
      "distince": "",
      "code": "517"
    },
    {
      "location": [
        126.611357,
        45.724239
      ],
      "name": "哈尔滨自兴街证券营业部",
      "city": "哈尔滨市",
      "address": "哈尔滨市南岗区自兴街96-100号",
      "province": "黑龙江省",
      "phone": [
        "0451-84298800"
      ],
      "distince": "",
      "code": "501"
    },
    {
      "location": [
        126.678564,
        45.75385
      ],
      "name": "哈尔滨长江路证券营业部",
      "city": "哈尔滨市",
      "address": "哈尔滨市南岗区长江路65号远东商务中心2楼",
      "province": "黑龙江省",
      "phone": [
        "0451-82622088"
      ],
      "distince": "",
      "code": "017"
    },
    {
      "location": [
        125.332968,
        43.837172
      ],
      "name": "长春人民大街证券营业部",
      "city": "长春市",
      "address": "吉林省长春市南关区人民大街8688号明珠广场A座A101,A301A,A302A,A304B室",
      "province": "吉林省",
      "phone": [
        "0431-89858088"
      ],
      "distince": "",
      "code": "177"
    },
    {
      "location": [
        117.677598,
        24.515545
      ],
      "name": "漳州南昌中路证券营业部",
      "city": "漳州市",
      "address": "福建省漳州市芗城区南昌中路70号（都市阳光A座四层）",
      "province": "福建省",
      "phone": [
        "0596-2999858"
      ],
      "distince": "",
      "code": "196"
    },
    {
      "location": [
        119.815745,
        31.359552
      ],
      "name": "宜兴氿滨大道证券营业部",
      "city": "无锡市",
      "address": "宜兴市宜城街道氿滨南路28号",
      "province": "江苏省",
      "phone": [
        "0510-80712056"
      ],
      "distince": "",
      "code": "390"
    },
    {
      "location": [
        117.906322,
        24.528184
      ],
      "name": "漳州台商投资区证券营业部",
      "city": "漳州市",
      "address": "福建省漳州台商投资区角美镇洪岱路9号富雅国际12幢D15号",
      "province": "福建省",
      "phone": [
        "0596-6773819"
      ],
      "distince": "",
      "code": "596"
    },
    {
      "location": [
        120.284251,
        31.915135
      ],
      "name": "江阴市环城北路证券营业部",
      "city": "无锡市",
      "address": "江阴市环城北路27号705",
      "province": "江苏省",
      "phone": [
        "0510-86881901"
      ],
      "distince": "",
      "code": "356"
    },
    {
      "location": [
        118.110881,
        24.492012
      ],
      "name": "厦门湖滨东路证券营业部",
      "city": "厦门市",
      "address": "厦门市思明区湖滨东路309号宏泰中心19层A区",
      "province": "福建省",
      "phone": [
        "0592-8895565"
      ],
      "distince": "",
      "code": "178"
    },
    {
      "location": [
        120.311102,
        31.577874
      ],
      "name": "无锡新生路证券营业部",
      "city": "无锡市",
      "address": "无锡市崇安区新生路107号",
      "province": "江苏省",
      "phone": [
        "0510-82757923",
        "0510-82740512"
      ],
      "distince": "",
      "code": "022"
    },
    {
      "location": [
        120.10993,
        30.875272
      ],
      "name": "湖州苕溪西路证券营业部",
      "city": "湖州市",
      "address": "湖州市苕溪西路99号镭宝大厦1902-1室",
      "province": "浙江省",
      "phone": [
        "0572-2361973"
      ],
      "distince": "",
      "code": "386"
    },
    {
      "location": [
        120.556589,
        31.881765
      ],
      "name": "张家港人民中路证券营业部",
      "city": "苏州市",
      "address": "江苏省张家港市杨舍镇人民中路43号国泰大厦1楼",
      "province": "江苏省",
      "phone": [
        "0512-58685578"
      ],
      "distince": "",
      "code": "311"
    },
    {
      "location": [
        124.399508,
        40.139128
      ],
      "name": "丹东金桥证券营业部",
      "city": "丹东市",
      "address": "辽宁省丹东市振兴区锦山大街114-1号",
      "province": "辽宁省",
      "phone": [
        "0415-2662888"
      ],
      "distince": "",
      "code": "550"
    },
    {
      "location": [
        120.028342,
        30.281278
      ],
      "name": "杭州海创园证券营业部",
      "city": "杭州市",
      "address": "浙江省杭州市余杭区五常街道赛银国际商务中心7幢665号",
      "province": "浙江省",
      "phone": [
        "0571-28311283"
      ],
      "distince": "",
      "code": "571"
    },
    {
      "location": [
        118.597083,
        24.815815
      ],
      "name": "晋江和平中路证券营业部",
      "city": "泉州市",
      "address": "福建省泉州市晋江市和平中路1号泰兴达大厦6层A单元",
      "province": "福建省",
      "phone": [
        "0595-82165525",
        "0595-82165527"
      ],
      "distince": "",
      "code": "391"
    },
    {
      "location": [
        120.213238,
        30.247077
      ],
      "name": "杭州富春路证券营业部",
      "city": "杭州市",
      "address": "浙江省杭州市江干区城星国际中心1幢2705室-02、2706室-01”",
      "province": "浙江省",
      "phone": [
        "0571-87171532"
      ],
      "distince": "",
      "code": "371"
    },
    {
      "location": [
        120.719804,
        31.329955
      ],
      "name": "苏州证券营业部",
      "city": "苏州市",
      "address": "江苏省苏州市工业园区华池街88号晋合广场2单元6楼",
      "province": "江苏省",
      "phone": [
        "0512-69325038"
      ],
      "distince": "",
      "code": "076"
    },
    {
      "location": [
        120.107038,
        29.323559
      ],
      "name": "义乌宗泽路证券营业部",
      "city": "金华市",
      "address": "浙江省义乌市稠城街道宗泽路567号11楼-1",
      "province": "浙江省",
      "phone": [
        "0579-89897688"
      ],
      "distince": "",
      "code": "306"
    },
    {
      "location": [
        119.03306,
        25.431458
      ],
      "name": "莆田延寿南路证券营业部",
      "city": "莆田市",
      "address": "福建省莆田市荔城区镇海街道延寿南路609号汉庭花园C区5楼",
      "province": "福建省",
      "phone": [
        "0594-6219066"
      ],
      "distince": "",
      "code": "383"
    },
    {
      "location": [
        120.737069,
        30.765091
      ],
      "name": "嘉兴中山东路证券营业部",
      "city": "嘉兴市",
      "address": "浙江省嘉兴市南湖区中山东路1474一楼",
      "province": "浙江省",
      "phone": [
        "0573-83968609"
      ],
      "distince": "",
      "code": "330"
    },
    {
      "location": [
        121.059447,
        31.391188
      ],
      "name": "昆山春旭路证券营业部",
      "city": "苏州市",
      "address": "昆山开发区春旭路168号帝宝金融大厦101A室",
      "province": "江苏省",
      "phone": [
        "0512-57160305"
      ],
      "distince": "",
      "code": "378"
    },
    {
      "location": [
        119.325343,
        26.081466
      ],
      "name": "福州六一中路证券营业部",
      "city": "福州市",
      "address": "福建省福州市六一中路28号佳盛广场C座6楼",
      "province": "福建省",
      "phone": [
        "0591-83306032",
        "0591-83377560"
      ],
      "distince": "",
      "code": "061"
    },
    {
      "location": [
        120.594113,
        30.000666
      ],
      "name": "绍兴中兴南路证券营业部",
      "city": "绍兴市",
      "address": "绍兴市中兴南路95号601室",
      "province": "浙江省",
      "phone": [
        "0575-88678588"
      ],
      "distince": "",
      "code": "337"
    },
    {
      "location": [
        119.386888,
        25.72297
      ],
      "name": "福清江滨路证券营业部",
      "city": "福州市",
      "address": "福建省福州市福清市玉屏街道江滨路24号天河大厦第11层",
      "province": "福建省",
      "phone": [
        "0591-85860656"
      ],
      "distince": "",
      "code": "380"
    },
    {
      "location": [
        121.313475,
        31.295459
      ],
      "name": "上海嘉定区民主街证券营业部",
      "city": "嘉定区",
      "address": "上海市嘉定区南翔镇民主街350号1层-2",
      "province": "上海市",
      "phone": [
        "021-59538017"
      ],
      "distince": "",
      "code": "339"
    },
    {
      "location": [
        121.388477,
        31.163473
      ],
      "name": "上海龙茗路证券营业部",
      "city": "闵行区",
      "address": "上海市闵行区龙茗路2213号",
      "province": "上海市",
      "phone": [
        "021-54725306"
      ],
      "distince": "",
      "code": "336"
    },
    {
      "location": [
        121.409097,
        31.208762
      ],
      "name": "上海娄山关路证券营业部",
      "city": "长宁区",
      "address": "上海长宁区娄山关路55号新虹桥大厦13楼",
      "province": "上海市",
      "phone": [
        "021-62758529"
      ],
      "distince": "",
      "code": "009"
    },
    {
      "location": [
        121.494713,
        31.39958
      ],
      "name": "上海牡丹江路证券营业部",
      "city": "宝山区",
      "address": "上海市宝山区牡丹江路1248号安信商业广场A区二层",
      "province": "上海市",
      "phone": [
        "021-66022388"
      ],
      "distince": "",
      "code": "128"
    },
    {
      "location": [
        121.437273,
        31.225137
      ],
      "name": "上海江苏路证券营业部",
      "city": "长宁区",
      "address": "上海市长宁区江苏路398号舜元企业发展大厦7楼",
      "province": "上海市",
      "phone": [
        "021-32505888"
      ],
      "distince": "",
      "code": "006"
    },
    {
      "location": [
        121.469755,
        31.232431
      ],
      "name": "上海静安石门一路证券营业部",
      "city": "静安区",
      "address": "上海市静安区石门一路88号1层",
      "province": "上海市",
      "phone": [
        "021-53861500"
      ],
      "distince": "",
      "code": "521"
    },
    {
      "location": [
        121.464619,
        31.208817
      ],
      "name": "上海肇嘉浜路证券营业部",
      "city": "徐汇区",
      "address": "上海市徐汇区肇嘉浜路366号1幢2楼",
      "province": "上海市",
      "phone": [
        "021-64727088"
      ],
      "distince": "",
      "code": "039"
    },
    {
      "location": [
        121.487054,
        31.229952
      ],
      "name": "上海黄浦区西藏南路证券营业部",
      "city": "黄浦区",
      "address": "上海市黄浦区西藏南路218号10层1002、1005室",
      "province": "上海市",
      "phone": [
        "021-50831056"
      ],
      "distince": "",
      "code": "321"
    },
    {
      "location": [
        121.523443,
        31.306895
      ],
      "name": "上海翔殷路证券营业部",
      "city": "杨浦区",
      "address": "上海市杨浦区翔殷路1128号上海沪东金融大厦十一层",
      "province": "上海市",
      "phone": [
        "021-55971597",
        "021-55971337"
      ],
      "distince": "",
      "code": "019"
    },
    {
      "location": [
        121.508146,
        31.255411
      ],
      "name": "上海虹口区东大名路证券营业部",
      "city": "虹口区",
      "address": "上海市虹口区东大名路687号一楼",
      "province": "上海市",
      "phone": [
        "021-55806598"
      ],
      "distince": "",
      "code": "678"
    },
    {
      "location": [
        121.48979,
        31.20255
      ],
      "name": "上海中山南路证券营业部",
      "city": "黄浦区",
      "address": "上海市黄浦区中山南路1828号",
      "province": "上海市",
      "phone": [
        "021-63350755"
      ],
      "distince": "",
      "code": "568"
    },
    {
      "location": [
        121.51,
        31.24
      ],
      "name": "上海陆家嘴东路证券营业部",
      "city": "浦东新区",
      "address": "上海市陆家嘴东路161号招商局大厦34楼",
      "province": "上海市",
      "phone": [
        "021-58825607"
      ],
      "distince": "",
      "code": "083"
    },
    {
      "location": [
        121.492758,
        31.187827
      ],
      "name": "上海世博证券营业部",
      "city": "自由贸易试验区",
      "address": "上海市浦东新区博航路68号招商局上海中心大厦一楼招商证券",
      "province": "上海市",
      "phone": [
        "021-58333103"
      ],
      "distince": "",
      "code": "580"
    },
    {
      "location": [
        121.52265,
        31.235145
      ],
      "name": "上海浦东新区浦东南路证券营业部",
      "city": "自由贸易试验区",
      "address": "中国（上海）自由贸易实验区浦东南路999号（新梅联合广场）7楼",
      "province": "上海市",
      "phone": [
        "021-58770028"
      ],
      "distince": "",
      "code": "069"
    },
    {
      "location": [
        121.539216,
        31.231012
      ],
      "name": "上海世纪大道证券营业部",
      "city": "自由贸易试验区",
      "address": "中国（上海）自由贸易试验区世纪大道1500号3楼",
      "province": "上海市",
      "phone": [
        "021-68407940"
      ],
      "distince": "",
      "code": "021"
    },
    {
      "location": [
        121.559502,
        31.230529
      ],
      "name": "上海长柳路证券营业部",
      "city": "自由贸易试验区",
      "address": "中国（上海）自由贸易试验区长柳路115号一层",
      "province": "上海市",
      "phone": [
        "021-58330509"
      ],
      "distince": "",
      "code": "586"
    },
    {
      "location": [
        121.567718,
        31.217029
      ],
      "name": "上海浦东新区梅花路营业部(原樱花路营业部)",
      "city": "浦东新区",
      "address": "上海市浦东新区梅花路1079号1层及1099号115室",
      "province": "上海市",
      "phone": [
        "021-50398065",
        "021-50301028"
      ],
      "distince": "",
      "code": "345"
    },
    {
      "location": [
        121.1629,
        30.045412
      ],
      "name": "余姚南雷路证券营业部",
      "city": "宁波市",
      "address": "浙江省余姚市南雷路270号",
      "province": "浙江省",
      "phone": [
        "0574-55865511"
      ],
      "distince": "",
      "code": "335"
    },
    {
      "location": [
        121.605749,
        31.211462
      ],
      "name": "上海张江高科技园区证券营业部",
      "city": "上海市",
      "address": "中国（上海）自由贸易试验区金科路2966号1幢518室",
      "province": "上海市",
      "phone": [
        "021-58695565"
      ],
      "distince": "",
      "code": "588"
    },
    {
      "location": [
        120.648827,
        28.017105
      ],
      "name": "温州鹿城路证券营业部",
      "city": "温州市",
      "address": "浙江省温州市鹿城区鹿城路133号瑞兴大厦107室",
      "province": "浙江省",
      "phone": [
        "0577-88000058"
      ],
      "distince": "",
      "code": "578"
    },
    {
      "location": [
        120.713422,
        28.004807
      ],
      "name": "温州新城大道证券营业部",
      "city": "温州市",
      "address": "温州市鹿城区新城大道中天大厦4楼",
      "province": "浙江省",
      "phone": [
        "0577-88000088"
      ],
      "distince": "",
      "code": "188"
    },
    {
      "location": [
        121.547239,
        29.917324
      ],
      "name": "宁波丽江东路证券营业部",
      "city": "宁波市",
      "address": "浙江省宁波市江北区丽江东路37号（天水家园北门对面）",
      "province": "浙江省",
      "phone": [
        "0574-55331688"
      ],
      "distince": "",
      "code": "357"
    },
    {
      "location": [
        120.982965,
        28.121876
      ],
      "name": "乐清旭阳路证券营业部",
      "city": "温州市",
      "address": "乐清市城东街道旭阳路旭金大厦三楼",
      "province": "浙江省",
      "phone": [
        "0577-61118899"
      ],
      "distince": "",
      "code": "332"
    },
    {
      "location": [
        121.616208,
        29.872581
      ],
      "name": "宁波江澄北路证券营业部",
      "city": "宁波市",
      "address": "宁波市鄞州区江澄北路487号宁兴财富广场1号043幢（7-1）",
      "province": "浙江省",
      "phone": [
        "0574-87863333"
      ],
      "distince": "",
      "code": "158"
    },
    {
      "location": [
        121.423341,
        28.661295
      ],
      "name": "台州市府大道证券营业部",
      "city": "台州市",
      "address": "台州市市府大道500号1幢4楼408",
      "province": "浙江省",
      "phone": [
        "0576-89811870"
      ],
      "distince": "",
      "code": "365"
    },
    {
      "location": [
        122.211353,
        29.996225
      ],
      "name": "舟山千岛路证券营业部",
      "city": "舟山市",
      "address": "舟山市定海区临城街道千岛路179号",
      "province": "浙江省",
      "phone": [
        "0580-8171777"
      ],
      "distince": "",
      "code": "351"
    },
    {
      "location": [
        116.486507,
        40.00278
      ],
      "name": "北京望京阜安西路证券营业部",
      "city": "北京市",
      "address": "北京市朝阳区望京SOHO塔2二层2218室",
      "province": "北京市",
      "phone": [
        "010-64715258"
      ],
      "distince": "",
      "code": "518"
    },
    {
      "location": [
        119.963105,
        31.733262
      ],
      "name": "常州常武中路证券营业部",
      "city": "常州市",
      "address": "常州市武进区常武中路2号广成东方大厦A-102、A-103室",
      "province": "江苏省",
      "phone": [
        "0519-86501119"
      ],
      "distince": "",
      "code": "363"
    },
    {
      "location": [
        113.088907,
        28.250978
      ],
      "name": "长沙开元中路证券营业部",
      "city": "长沙市",
      "address": "湖南省长沙县星沙街道开元中路88号星隆国际广场1401、1402、1403",
      "province": "湖南省",
      "phone": [
        "0731-84019020"
      ],
      "distince": "",
      "code": "385"
    },
    {
      "location": [
        113.021727,
        25.77749
      ],
      "name": "郴州五岭大道证券营业部",
      "city": "郴州市",
      "address": "湖南省郴州市北湖区五岭大道林邑财富中心",
      "province": "湖南省",
      "phone": [
        "0735-2998996"
      ],
      "distince": "",
      "code": "566"
    },
    {
      "location": [
        118.893071,
        42.258843
      ],
      "name": "赤峰玉龙大街证券营业部",
      "city": "赤峰市",
      "address": "赤峰市新城区众联广场南侧",
      "province": "内蒙古自治区",
      "phone": [
        "0476-2782058"
      ],
      "distince": "",
      "code": "500"
    },
    {
      "location": [
        121.598422,
        38.998163
      ],
      "name": "大连华南广场证券营业部",
      "city": "大连市",
      "address": "辽宁省大连市甘井子区汇达街17号5层12号、13号",
      "province": "辽宁省",
      "phone": [
        "0411-39040858"
      ],
      "distince": "",
      "code": "555"
    },
    {
      "location": [
        112.582986,
        26.898607
      ],
      "name": "衡阳解放大道证券营业部",
      "city": "衡阳市",
      "address": "湖南省衡阳市高新区解放大道1号安麒广场雁城世家101-3",
      "province": "湖南省",
      "phone": [
        "0734-2839196"
      ],
      "distince": "",
      "code": "515"
    },
    {
      "location": [
        115.097744,
        30.217924
      ],
      "name": "黄石南京路营业部",
      "city": "黄石市",
      "address": "湖北省黄石市黄石港区南京路22号",
      "province": "湖北省",
      "phone": [
        "0714-6208796"
      ],
      "distince": "",
      "code": "359"
    },
    {
      "location": [
        118.85748,
        31.939136
      ],
      "name": "江宁天元东路证券营业部",
      "city": "南京市",
      "address": "南京市江宁区天元东路56号",
      "province": "江苏省",
      "phone": [
        "025-52166020"
      ],
      "distince": "",
      "code": "358"
    },
    {
      "location": [
        119.215328,
        34.607266
      ],
      "name": "连云港苍梧路证券营业部",
      "city": "连云港市",
      "address": "连云港市海州区苍梧路53号同科汇丰国际1号商业-105",
      "province": "江苏省",
      "phone": [
        "0518-85015678"
      ],
      "distince": "",
      "code": "669"
    },
    {
      "location": [
        120.888215,
        32.029251
      ],
      "name": "南通工农路证券营业部",
      "city": "南通市",
      "address": "南通市崇川区工农路459号103附1室",
      "province": "江苏省",
      "phone": [
        "0513-55011011"
      ],
      "distince": "",
      "code": "598"
    },
    {
      "location": [
        121.982902,
        29.779973
      ],
      "name": "宁波梅山保税港区证券营业部",
      "city": "宁波市",
      "address": "浙江省宁波市北仑区梅山海兰路55号1幢01室1-1",
      "province": "浙江省",
      "phone": [
        "0574-55009779"
      ],
      "distince": "",
      "code": "607"
    },
    {
      "location": [
        121.533055,
        31.213515
      ],
      "name": "上海浦东新区浦建路证券营业部",
      "city": "上海市",
      "address": "上海市浦东新区浦建路326号一楼",
      "province": "上海市",
      "phone": [
        "021-58951223"
      ],
      "distince": "",
      "code": "658"
    },
    {
      "location": [
        121.321335,
        31.202336
      ],
      "name": "上海闵行区申长路证券营业部",
      "city": "上海市",
      "address": "上海闵行区申长路988弄5号111室",
      "province": "上海市",
      "phone": [
        "021-62208699"
      ],
      "distince": "",
      "code": "601"
    },
    {
      "location": [
        114.059098,
        22.542031
      ],
      "name": "深圳福华一路证券营业部",
      "city": "深圳市",
      "address": "深圳市福田区福田街道福安社区福华一路111号招商证券大厦3楼",
      "province": "广东省",
      "phone": [
        "0755-82532236"
      ],
      "distince": "",
      "code": "611"
    },
    {
      "location": [
        114.046478,
        22.551892
      ],
      "name": "深圳红荔西路证券营业部",
      "city": "深圳市",
      "address": "深圳市福田区莲花街道红荔西路7058号市政大厦212-214单元",
      "province": "广东省",
      "phone": [
        "0755-82797197"
      ],
      "distince": "",
      "code": "533"
    },
    {
      "location": [
        113.907057,
        22.535183
      ],
      "name": "深圳前海自贸区梦海大道证券营业部",
      "city": "深圳市",
      "address": "深圳市前海深港合作区梦海大道5033号卓越前海壹号8栋9层905单元",
      "province": "广东省",
      "phone": [
        "0755-86562264"
      ],
      "distince": "",
      "code": "538"
    },
    {
      "location": [
        114.077703,
        22.561946
      ],
      "name": "深圳深业上城证券营业部",
      "city": "深圳市",
      "address": "深圳市福田区华富街道莲花一村社区皇岗路5001号深业上城（南区）T2栋702",
      "province": "广东省",
      "phone": [
        "0755-88662223"
      ],
      "distince": "",
      "code": "698"
    },
    {
      "location": [
        114.059098,
        22.542031
      ],
      "name": "深圳招商证券大厦证券营业部（机构）",
      "city": "深圳市",
      "address": "深圳市福田区福华一路111号招商证券大厦23楼",
      "province": "广东省",
      "phone": [
        "0755-82954180"
      ],
      "distince": "",
      "code": "182"
    },
    {
      "location": [
        118.779823,
        36.875397
      ],
      "name": "寿光圣城街证券营业部",
      "city": "潍坊市",
      "address": "寿光市圣城街北学院路东侧全福元国际商务区财富大厦六楼",
      "province": "山东省",
      "phone": [
        "0536-5395565"
      ],
      "distince": "",
      "code": "395"
    },
    {
      "location": [
        112.154396,
        32.056337
      ],
      "name": "襄阳前进路证券营业部",
      "city": "襄阳市",
      "address": "湖北省襄阳市樊城区前进路31号世纪金源广场1幢7层707",
      "province": "湖北省",
      "phone": [
        "0710-3895565"
      ],
      "distince": "",
      "code": "506"
    },
    {
      "location": [
        119.502058,
        32.190928
      ],
      "name": "镇江谷阳路证券营业部",
      "city": "镇江市",
      "address": "镇江市新区谷阳路96号钻石铭苑6幢108室",
      "province": "江苏省",
      "phone": [
        "0511-88899061"
      ],
      "distince": "",
      "code": "393"
    },
    {
      "location": [
        124.914395,
        46.606092
      ],
      "name": "大庆创业大道证券营业部",
      "city": "大庆市",
      "address": "黑龙江省大庆市让胡路区奥林国际公寓2号写字楼1层、6层",
      "province": "黑龙江省",
      "phone": [
        "0459-6335088"
      ],
      "distince": "",
      "code": "150"
    },
    {
      "location": [
        87.609633,
        43.798772
      ],
      "name": "乌鲁木齐黄河路证券营业部",
      "city": "乌鲁木齐市",
      "address": "新疆乌鲁木齐市沙依巴克区黄河路2号恒昌大厦1栋4层商3、商9",
      "province": "新疆维吾尔自治区",
      "phone": [
        "0991-5596567",
        "0991-5563567"
      ],
      "distince": "",
      "code": "595"
    },
    {
      "location": [
        98.502866,
        39.736441
      ],
      "name": "酒泉宝泉东路证券营业部",
      "city": "酒泉市",
      "address": "甘肃省酒泉市肃州区宝泉东路1号西侧三层",
      "province": "甘肃省",
      "phone": [
        "0937-2710606"
      ],
      "distince": "",
      "code": "382"
    },
    {
      "location": [
        103.633165,
        36.097843
      ],
      "name": "兰州福利西路证券营业部",
      "city": "兰州市",
      "address": "甘肃省兰州市西固区福利西路169号兰铝大厦8楼",
      "province": "甘肃省",
      "phone": [
        "0931-2122988"
      ],
      "distince": "",
      "code": "551"
    },
    {
      "location": [
        103.856993,
        36.056861
      ],
      "name": "兰州东岗西路证券营业部",
      "city": "兰州市",
      "address": "兰州市城关区东岗西路621号长业金座五层",
      "province": "甘肃省",
      "phone": [
        "0931-2121111"
      ],
      "distince": "",
      "code": "155"
    },
    {
      "location": [
        102.729531,
        25.069512
      ],
      "name": "昆明北京路证券营业部",
      "city": "昆明市",
      "address": "昆明市盘龙区北京路987号俊发中心4层A区和B区",
      "province": "云南省",
      "phone": [
        "0871-63616095"
      ],
      "distince": "",
      "code": "027"
    },
    {
      "location": [
        104.072231,
        30.674717
      ],
      "name": "成都人民中路证券营业部",
      "city": "成都市",
      "address": "成都市青羊区人民中路二段29号1栋6层1号",
      "province": "四川省",
      "phone": [
        "028-86159198"
      ],
      "distince": "",
      "code": "373"
    },
    {
      "location": [
        104.072642,
        30.634444
      ],
      "name": "成都人民南路证券营业部",
      "city": "成都市",
      "address": "成都市武侯区人民南路四段12号华宇蓉国府6号楼7楼",
      "province": "四川省",
      "phone": [
        "028-85125550"
      ],
      "distince": "",
      "code": "062"
    },
    {
      "location": [
        104.074514,
        30.5527
      ],
      "name": "成都天府三街证券营业部",
      "city": "成都市",
      "address": "成都高新区天府三街19号新希望国际A座3楼302号",
      "province": "四川省",
      "phone": [
        "028-61069808"
      ],
      "distince": "",
      "code": "505"
    },
    {
      "location": [
        104.73106,
        31.465082
      ],
      "name": "绵阳临园路证券营业部",
      "city": "绵阳市",
      "address": "绵阳市临园路西段5号（花园文体中心综合楼8-5）",
      "province": "四川省",
      "phone": [
        "0816-2373751"
      ],
      "distince": "",
      "code": "322"
    },
    {
      "location": [
        106.234873,
        38.483163
      ],
      "name": "银川宁安大街证券营业部",
      "city": "银川市",
      "address": "宁夏银川市金凤区宁安大街88号宝塔大厦3楼",
      "province": "宁夏回族自治区",
      "phone": [
        "0951-5691000",
        "0951-5699825"
      ],
      "distince": "",
      "code": "133"
    },
    {
      "location": [
        106.084533,
        30.80036
      ],
      "name": "南充丝绸路证券营业部",
      "city": "南充市",
      "address": "四川省南充市顺庆区丝绸路2号第8层802号",
      "province": "四川省",
      "phone": [
        "0817-2667778"
      ],
      "distince": "",
      "code": "327"
    },
    {
      "location": [
        106.571571,
        29.644377
      ],
      "name": "重庆汽博中心证券营业部",
      "city": "渝北区",
      "address": "重庆市渝北区栖霞路16号融创金贸时代北区1幢18-4",
      "province": "重庆市",
      "phone": [
        "023-86395565"
      ],
      "distince": "",
      "code": "593"
    },
    {
      "location": [
        106.580281,
        29.575132
      ],
      "name": "重庆金沙门路证券营业部",
      "city": "江北区",
      "address": "重庆市江北区江北嘴聚贤岩广场9号国华天平大厦1单元12层1201、1202室",
      "province": "重庆市",
      "phone": [
        "023-63786018"
      ],
      "distince": "",
      "code": "059"
    },
    {
      "location": [
        106.587395,
        29.564715
      ],
      "name": "重庆解放碑证券营业部",
      "city": "渝中区",
      "address": "重庆市渝中区五一路99号1单元23-4",
      "province": "重庆市",
      "phone": [
        "023-86525188"
      ],
      "distince": "",
      "code": "592"
    },
    {
      "location": [
        106.581086,
        29.511866
      ],
      "name": "重庆学府大道证券营业部",
      "city": "南岸区",
      "address": "重庆市南岸区学府大道33号17幢招商局大厦写字楼1楼1号",
      "province": "重庆市",
      "phone": [
        "023-86337688"
      ],
      "distince": "",
      "code": "376"
    },
    {
      "location": [
        106.722263,
        26.576623
      ],
      "name": "贵阳中华南路证券营业部",
      "city": "贵阳市",
      "address": "贵州省贵阳市南明区中华南路181号华坤发展大厦24楼",
      "province": "贵州省",
      "phone": [
        "0851-85558536"
      ],
      "distince": "",
      "code": "208"
    },
    {
      "location": [
        107.404794,
        29.712925
      ],
      "name": "重庆涪陵广场路证券营业部",
      "city": "涪陵区",
      "address": "重庆市涪陵区广场路5号",
      "province": "重庆市",
      "phone": [
        "023-72208333"
      ],
      "distince": "",
      "code": "115"
    },
    {
      "location": [
        108.730567,
        34.322091
      ],
      "name": "咸阳世纪大道证券营业部",
      "city": "咸阳市",
      "address": "陕西省咸阳市秦都区世纪大道中段55号启迪国际城2层",
      "province": "陕西省",
      "phone": [
        "029-38013232",
        "029-38991333"
      ],
      "distince": "",
      "code": "119"
    },
    {
      "location": [
        109.764398,
        38.24976
      ],
      "name": "榆林明珠大道证券营业部",
      "city": "榆林市",
      "address": "榆林市高新区明珠大道28号易讯大厦6层",
      "province": "陕西省",
      "phone": [
        "0912-3829949"
      ],
      "distince": "",
      "code": "120"
    },
    {
      "location": [
        108.831475,
        34.296687
      ],
      "name": "西咸新区证券营业部",
      "city": "西咸新区",
      "address": "陕西省西咸新区沣东新城三桥新街以南华润二十四城7号楼10104房",
      "province": "陕西省",
      "phone": [
        "029-89506511"
      ],
      "distince": "",
      "code": "511"
    },
    {
      "location": [
        108.850792,
        34.20093
      ],
      "name": "西安锦业路证券营业部",
      "city": "西安市",
      "address": "西安市高新区锦业路125号",
      "province": "陕西省",
      "phone": [
        "029-81106555"
      ],
      "distince": "",
      "code": "315"
    },
    {
      "location": [
        108.943503,
        34.346021
      ],
      "name": "西安未央证券营业部",
      "city": "西安市",
      "address": "西安经济技术开发区凤城八路西北国金中心C座14层06单元",
      "province": "陕西省",
      "phone": [
        "029-86260300"
      ],
      "distince": "",
      "code": "361"
    },
    {
      "location": [
        108.904607,
        34.16403
      ],
      "name": "西安长安区证券营业部",
      "city": "西安市",
      "address": "西安市长安区郭杜街办茅坡村西侧万科城第36幢1单元1层10101号",
      "province": "陕西省",
      "phone": [
        "029-85916556"
      ],
      "distince": "",
      "code": "587"
    },
    {
      "location": [
        108.953857,
        34.269302
      ],
      "name": "西安北大街证券营业部",
      "city": "西安市",
      "address": "陕西省西安市北大街55号新时代广场四层",
      "province": "陕西省",
      "phone": [
        "029-87893557"
      ],
      "distince": "",
      "code": "079"
    },
    {
      "location": [
        108.961827,
        34.198114
      ],
      "name": "西安曲江新区证券营业部",
      "city": "西安市",
      "address": "西安曲江新区翠华路500号佳和商务大厦A座21层02、03室",
      "province": "陕西省",
      "phone": [
        "029-89555565"
      ],
      "distince": "",
      "code": "305"
    },
    {
      "location": [
        111.752691,
        40.845847
      ],
      "name": "呼和浩特新华东街证券营业部",
      "city": "呼和浩特市",
      "address": "内蒙古自治区呼和浩特市如意工业园区新华东街3-3亿峰岛璞园一层底商",
      "province": "内蒙古自治区",
      "phone": [
        "0471-3284070"
      ],
      "distince": "",
      "code": "217"
    },
    {
      "location": [
        108.349788,
        22.818818
      ],
      "name": "南宁民族大道证券营业部",
      "city": "南宁市",
      "address": "广西南宁市青秀区民族大道56-1号星湖综合楼703号",
      "province": "广西壮族自治区",
      "phone": [
        "0771-2829126"
      ],
      "distince": "",
      "code": "065"
    },
    {
      "location": [
        108.378332,
        22.817387
      ],
      "name": "南宁金湖路证券营业部",
      "city": "南宁市",
      "address": "广西南宁市青秀区金湖路38-1号时代丽都三楼",
      "province": "广西壮族自治区",
      "phone": [
        "0771-5631168"
      ],
      "distince": "",
      "code": "031"
    },
    {
      "location": [
        110.776631,
        32.65801
      ],
      "name": "十堰公园路营业部",
      "city": "十堰市",
      "address": "湖北省十堰市张湾区公园路71号农行大厦8层",
      "province": "湖北省",
      "phone": [
        "0719-8652128"
      ],
      "distince": "",
      "code": "126"
    },
    {
      "location": [
        109.419473,
        24.323029
      ],
      "name": "柳州解放北路证券营业部",
      "city": "柳州市",
      "address": "广西壮族自治区柳州市解放北路3号新大地商厦2楼",
      "province": "广西壮族自治区",
      "phone": [
        "0772-2815851",
        "0772-2815852",
        "0772-2860531",
        "0772-2837725",
        "0772-2815711"
      ],
      "distince": "",
      "code": "063"
    },
    {
      "location": [
        112.559416,
        37.835138
      ],
      "name": "太原平阳路证券营业部",
      "city": "太原市",
      "address": "山西省太原市小店区平阳路50号水龙盛大厦二层",
      "province": "山西省",
      "phone": [
        "0351-5259800"
      ],
      "distince": "",
      "code": "111"
    },
    {
      "location": [
        109.130266,
        21.474401
      ],
      "name": "北海市北海大道证券营业部",
      "city": "北海市",
      "address": "北海市北海大道中路181号奇珠大厦A座5楼",
      "province": "广西壮族自治区",
      "phone": [
        "0779-6668688"
      ],
      "distince": "",
      "code": "109"
    },
    {
      "location": [
        109.595298,
        23.110379
      ],
      "name": "贵港金港大道证券营业部",
      "city": "贵港市",
      "address": "广西贵港市金港大道（财富中心）1幢2002号",
      "province": "广西壮族自治区",
      "phone": [
        "0775-2938775"
      ],
      "distince": "",
      "code": "331"
    },
    {
      "location": [
        111.855452,
        33.065108
      ],
      "name": "内乡牧原证券营业部",
      "city": "南阳市",
      "address": "河南省内乡县湍东镇左岸皇朝小区13号楼一层106、107、108号",
      "province": "河南省",
      "phone": [
        "0377-65333898"
      ],
      "distince": "",
      "code": "560"
    },
    {
      "location": [
        111.30503,
        30.697515
      ],
      "name": "宜昌胜利四路证券营业部",
      "city": "宜昌市",
      "address": "湖北省宜昌市伍家岗区胜利四路26号",
      "province": "湖北省",
      "phone": [
        "0717-6251293",
        "0717-6495565"
      ],
      "distince": "",
      "code": "106"
    },
    {
      "location": [
        110.304114,
        25.296853
      ],
      "name": "桂林中山北路证券营业部",
      "city": "桂林市",
      "address": "广西壮族自治区桂林市中山北路35号龙湖大厦3层（原木龙湖玉柴大厦）",
      "province": "广西壮族自治区",
      "phone": [
        "0773-2803111"
      ],
      "distince": "",
      "code": "068"
    },
    {
      "location": [
        110.183778,
        22.653238
      ],
      "name": "玉林广场东路证券营业部",
      "city": "玉林市",
      "address": "广西玉林市广场东路288号(海达开发区六区广场东路东南侧玉林联通综合大楼主楼2楼)",
      "province": "广西壮族自治区",
      "phone": [
        "0775-5828811"
      ],
      "distince": "",
      "code": "108"
    },
    {
      "location": [
        112.5337,
        33.00323
      ],
      "name": "南阳新华路证券营业部",
      "city": "南阳市",
      "address": "河南省南阳市卧龙区新华西路165号银河宾馆8楼",
      "province": "河南省",
      "phone": [
        "0377-63889696"
      ],
      "distince": "",
      "code": "516"
    },
    {
      "location": [
        112.205296,
        30.357937
      ],
      "name": "荆州荆中路营业部",
      "city": "荆州市",
      "address": "湖北省荆州市荆州区荆中路28号（工行大厦3楼）",
      "province": "湖北省",
      "phone": [
        "0716-8434789"
      ],
      "distince": "",
      "code": "137"
    },
    {
      "location": [
        110.333659,
        20.035011
      ],
      "name": "海口国贸大道证券营业部",
      "city": "海口市",
      "address": "海口市龙华区国贸大道1号景瑞大厦A座14楼A、B、C、D区",
      "province": "海南省",
      "phone": [
        "0898-68573006"
      ],
      "distince": "",
      "code": "193"
    },
    {
      "location": [
        114.53441,
        38.041196
      ],
      "name": "石家庄裕华东路证券营业部",
      "city": "石家庄市",
      "address": "石家庄市裕华区裕华东路106-1号金领大厦2号楼2单元1202、1203、1204",
      "province": "河北省",
      "phone": [
        "0311-67102778",
        "0311-67102788"
      ],
      "distince": "",
      "code": "138"
    },
    {
      "location": [
        113.724796,
        34.780073
      ],
      "name": "郑州商务外环路证券营业部",
      "city": "郑州市",
      "address": "郑州市郑东新区CBD商务外环路9号新芒果大厦5楼501、502、503、506、507、508号",
      "province": "河南省",
      "phone": [
        "0371-69166166"
      ],
      "distince": "",
      "code": "166"
    },
    {
      "location": [
        111.282508,
        23.481203
      ],
      "name": "梧州冬湖路证券营业部",
      "city": "梧州市",
      "address": "广西壮族自治区梧州市长洲区冬湖路1号总工会新综合楼二楼",
      "province": "广西壮族自治区",
      "phone": [
        "0774-3100111",
        "0774-3100089"
      ],
      "distince": "",
      "code": "110"
    },
    {
      "location": [
        114.412707,
        36.099275
      ],
      "name": "安阳朝阳路证券营业部",
      "city": "安阳市",
      "address": "河南省安阳市文峰区朝阳路与富泉街交叉口福佳斯国际花园1号楼附楼",
      "province": "河南省",
      "phone": [
        "0372-3990166"
      ],
      "distince": "",
      "code": "556"
    },
    {
      "location": [
        115.490666,
        38.878816
      ],
      "name": "保定东风中路证券营业部",
      "city": "保定市",
      "address": "河北省保定市竞秀区东风中路紫勋雍邸1-10底商",
      "province": "河北省",
      "phone": [
        "0312-2029777"
      ],
      "distince": "",
      "code": "512"
    },
    {
      "location": [
        116.283393,
        39.96415
      ],
      "name": "北京远大路证券营业部",
      "city": "海淀区",
      "address": "北京市海淀区远大路39号1号楼418室",
      "province": "北京市",
      "phone": [
        "010-88854830"
      ],
      "distince": "",
      "code": "508"
    },
    {
      "location": [
        116.319491,
        40.032916
      ],
      "name": "北京上地农大南路证券营业部",
      "city": "海淀区",
      "address": "北京市海淀区农大南路1号院2号楼5层办公B-522",
      "province": "北京市",
      "phone": [
        "010-62667596"
      ],
      "distince": "",
      "code": "388"
    },
    {
      "location": [
        116.312341,
        39.993259
      ],
      "name": "北京颐和园路证券营业部",
      "city": "海淀区",
      "address": "北京市海淀区颐和园路1号北京资源燕园宾馆一楼、二楼",
      "province": "北京市",
      "phone": [
        "010-62625066"
      ],
      "distince": "",
      "code": "050"
    },
    {
      "location": [
        116.289387,
        39.921588
      ],
      "name": "北京西翠路证券营业部",
      "city": "海淀区",
      "address": "北京市海淀区西翠路17号院24号楼1层103号",
      "province": "北京市",
      "phone": [
        "010-68156829"
      ],
      "distince": "",
      "code": "536"
    },
    {
      "location": [
        116.332,
        39.981
      ],
      "name": "北京知春东里证券营业部",
      "city": "海淀区",
      "address": "北京市海淀区知春东里15号",
      "province": "北京市",
      "phone": [
        "010-82127093"
      ],
      "distince": "",
      "code": "058"
    },
    {
      "location": [
        116.33155,
        39.940218
      ],
      "name": "北京车公庄西路证券营业部",
      "city": "海淀区",
      "address": "北京市海淀区首体南路9号主语国际中心4座3层",
      "province": "北京市",
      "phone": [
        "010-68418114"
      ],
      "distince": "",
      "code": "053"
    },
    {
      "location": [
        116.29349,
        39.839211
      ],
      "name": "北京中核路证券营业部",
      "city": "丰台区",
      "address": "北京市丰台区中核路3号院3号楼607、608室（园区）",
      "province": "北京市",
      "phone": [
        "010-63783058"
      ],
      "distince": "",
      "code": "370"
    },
    {
      "location": [
        116.363742,
        39.951479
      ],
      "name": "北京西直门北大街证券营业部",
      "city": "西城区",
      "address": "北京西直门北大街60号首钢国际大厦6层",
      "province": "北京市",
      "phone": [
        "010-82295856",
        "010-82291156"
      ],
      "distince": "",
      "code": "026"
    },
    {
      "location": [
        116.363956,
        39.937382
      ],
      "name": "北京平安大街证券营业部",
      "city": "西城区",
      "address": "北京市西城区平安里西大街28号楼01层101-02",
      "province": "北京市",
      "phone": [
        "010-63220322"
      ],
      "distince": "",
      "code": "553"
    },
    {
      "location": [
        116.437551,
        39.938854
      ],
      "name": "北京东四十条证券营业部",
      "city": "东城区",
      "address": "北京市东城区东四十条甲22号南新仓国际大厦B座3层A301、B318",
      "province": "北京市",
      "phone": [
        "010-65951602",
        "010-65951662"
      ],
      "distince": "",
      "code": "082"
    },
    {
      "location": [
        116.463154,
        39.92452
      ],
      "name": "北京朝外大街证券营业部",
      "city": "朝阳区",
      "address": "北京市朝阳区朝外大街6号新城国际5号楼",
      "province": "北京市",
      "phone": [
        "010-65336621"
      ],
      "distince": "",
      "code": "051"
    },
    {
      "location": [
        116.4743,
        39.89688
      ],
      "name": "北京广渠路证券营业部",
      "city": "朝阳区",
      "address": "北京市朝阳区广渠路66号院22号楼（百环大厦）1层101内105",
      "province": "北京市",
      "phone": [
        "010-87785600"
      ],
      "distince": "",
      "code": "660"
    },
    {
      "location": [
        113.167308,
        23.05441
      ],
      "name": "佛山南海南平西路证券营业部",
      "city": "佛山市",
      "address": "佛山市南海区桂城街南平西路佛山民间金融街（原广东夏西国际橡塑城）一期2号楼首、二层A2-11",
      "province": "广东省",
      "phone": [
        "0757-86086262"
      ],
      "distince": "",
      "code": "333"
    },
    {
      "location": [
        117.028139,
        25.08018
      ],
      "name": "龙岩龙岩大道证券营业部",
      "city": "龙岩市",
      "address": "福建省龙岩市新罗区龙岩大道282号商务营运中心商会大厦B座105室（龙岩经济技术开发区A）",
      "province": "福建省",
      "phone": [
        "0597-5389686",
        "0597-5389309"
      ],
      "distince": "",
      "code": "381"
    },
    {
      "location": [
        126.988606,
        46.642673
      ],
      "name": "绥化人和街证券营业部",
      "city": "绥化市",
      "address": "黑龙江省绥化市北林区人和街88号原商业局综合楼1楼（北林区检察院对面）",
      "province": "黑龙江省",
      "phone": [
        "0455-8101610"
      ],
      "distince": "",
      "code": "301"
    },
    {
      "location": [
        120.13183,
        30.279206
      ],
      "name": "杭州天目山路证券营业部",
      "city": "杭州市",
      "address": "浙江省杭州市西湖区天目山路274号、万塘路2-18（双）号A座1002、1003、1005、1007、1008室（黄龙时代广场A座10楼）",
      "province": "浙江省",
      "phone": [
        "0571-88480755",
        "0571-88480709"
      ],
      "distince": "",
      "code": "023"
    },
    {
      "location": [
        112.936909,
        27.843089
      ],
      "name": "湘潭河东大道证券营业部",
      "city": "湘潭市",
      "address": "湘潭市岳塘区宝塔街道河东大道46号3栋4号门面",
      "province": "湖南省",
      "phone": [
        "0731-52867387",
        "0731-52863030"
      ],
      "distince": "",
      "code": "520"
    },
    {
      "location": [
        113.140014,
        29.364044
      ],
      "name": "岳阳大道西证券营业部",
      "city": "岳阳市",
      "address": "湖南省岳阳市岳阳楼区岳阳大道西圣鑫城财智公馆1202、1205-1206房",
      "province": "湖南省",
      "phone": [
        "0730-2297996"
      ],
      "distince": "",
      "code": "350"
    },
    {
      "location": [
        113.774455,
        34.773807
      ],
      "name": "郑州自贸区证券营业部",
      "city": "郑州市",
      "address": "河南自贸试验区郑州片区（郑东）金水东路49号1号楼1层附24号",
      "province": "河南省",
      "phone": [
        "0371-56851588"
      ],
      "distince": "",
      "code": "529"
    },
    {
      "location": [
        113.545236,
        22.806032
      ],
      "name": "广州南沙进港大道证券营业部",
      "city": "广州市",
      "address": "广州市南沙区进港大道8号南沙城705、706、707房",
      "province": "广东省",
      "phone": [
        "020-39004008"
      ],
      "distince": "",
      "code": "368"
    },
    {
      "location": [
        121.433405,
        31.18842
      ],
      "name": "沪宜山营业部",
      "city": "徐汇区",
      "address": "上海市徐汇区中山西路2020号104-2室",
      "province": "上海市",
      "phone": [
        "021-59710221"
      ],
      "distince": "",
      "code": "318"
    }
  ],
  "time": 1608779501
}
